loopIteration, time (us), axisP[0], axisP[1], axisP[2], axisI[0], axisI[1], axisI[2], axisD[0], axisD[1], axisD[2], rcCommand[0], rcCommand[1], rcCommand[2], rcCommand[3], gyroADC[0], gyroADC[1], gyroADC[2], accSmooth[0], accSmooth[1], accSmooth[2], debug[0], debug[1], debug[2], debug[3], motor[0], motor[1], motor[2], motor[3], flightModeFlags (flags), stateFlags (flags), failsafePhase (flags), rxSignalReceived, rxFlightChannelsValid
  0, 10146483,   0,   0,  -4,   0,   0,   0,   0,  -1,   0,   0,   0,   2, 1000,   0,   0,   3, -130,  46, 2069,   0,   0,   0,   0, 1051, 1062, 1056, 1052, 0, 0, IDLE, 0, 0
  4, 10148638,   0,   0,  -2,   0,   0,   0,   0,   2,   0,   0,   0,   2, 1000,   0,   0,   2, -129,  45, 2068,   0,   0,   0,   0, 1055, 1054, 1061, 1051, ANGLE_MODE, SMALL_ANGLE, IDLE, 1, 1
  8, 10150744,   0,   0,   1,   0,   0,   0,   1,   1,   0,   0,   0,   2, 1000,   0,   0,   0, -128,  46, 2064,   0,   0,   0,   0, 1055, 1050, 1055, 1054, ANGLE_MODE, SMALL_ANGLE, IDLE, 1, 1
 12, 10152848,   0,   0,   5,   0,   0,   0,   0,   0,   0,   0,   0,   2, 1000,   0,   0,  -1, -127,  49, 2060,   0,   0,   0,   0, 1061, 1051, 1050, 1061, ANGLE_MODE, SMALL_ANGLE, IDLE, 1, 1
 16, 10155020,   0,   0,   6,   0,   0,   0,   0,   0,   0,   0,   0,   2, 1000,   0,   0,  -2, -126,  52, 2056,   0,   0,   0,   0, 1065, 1053, 1050, 1064, ANGLE_MODE, SMALL_ANGLE, IDLE, 1, 1
 20, 10157114,   0,   0,   5,   0,   0,   0,   0,   0,   0,   0,   0,   2, 1000,   0,   0,  -1, -126,  54, 2053,   0,   0,   0,   0, 1062, 1050, 1053, 1063, ANGLE_MODE, SMALL_ANGLE, IDLE, 1, 1
 24, 10159185,   0,   1,   3,   0,   0,   0,   2,   2,   0,   0,   0,   2, 1000,  -1,  -1,   0, -127,  54, 2054,   0,   0,   0,   0, 1060, 1050, 1061, 1060, ANGLE_MODE, SMALL_ANGLE, IDLE, 1, 1
 28, 10161291,   0,   0,   0,   0,   0,   0,   2,   2,   0,   0,   0,   2, 1000,  -1,  -1,   1, -127,  55, 2059,   0,   0,   0,   0, 1057, 1050, 1061, 1056, ANGLE_MODE, SMALL_ANGLE, IDLE, 1, 1
 32, 10163382,   0,   0,  -1,   0,   0,   0,   0,   0,   0,   0,   0,   2, 1000,   0,   0,   1, -129,  55, 2062,   0,   0,   0,   0, 1050, 1053, 1053, 1052, ANGLE_MODE, SMALL_ANGLE, IDLE, 1, 1
 36, 10165480,   0,   0,   0,   0,   0,   0,  -1,  -2,   0,   0,   0,   2, 1000,   0,   0,   1, -129,  53, 2064,   0,   0,   0,   0, 1053, 1060, 1050, 1056, ANGLE_MODE, SMALL_ANGLE, IDLE, 1, 1
 40, 10167568,   0,   0,   2,   0,   0,   0,  -3,  -2,   0,   0,   0,   2, 1000,   1,   0,   0, -129,  53, 2067,   0,   0,   0,   0, 1060, 1062, 1050, 1059, ANGLE_MODE, SMALL_ANGLE, IDLE, 1, 1
 44, 10169669,   0,   0,   5,   0,   0,   0,  -2,  -1,   0,   0,   0,   2, 1000,   0,   0,  -1, -127,  51, 2070,   0,   0,   0,   0, 1064, 1057, 1050, 1062, ANGLE_MODE, SMALL_ANGLE, IDLE, 1, 1
 48, 10171806,   0,   0,   6,   0,   0,   0,   0,   1,   0,   0,   0,   2, 1000,   0,   0,  -2, -125,  51, 2071,   0,   0,   0,   0, 1066, 1050, 1055, 1063, ANGLE_MODE, SMALL_ANGLE, IDLE, 1, 1
 52, 10173877,   0,   0,   5,   0,   0,   0,   0,   3,   0,   0,   0,   2, 1000,   0,  -1,  -1, -124,  52, 2074,   0,   0,   0,   0, 1069, 1050, 1058, 1061, ANGLE_MODE, SMALL_ANGLE, IDLE, 1, 1
 56, 10175979,   0,   0,   3,   0,   0,   0,   0,   1,   0,   0,   0,   2, 1000,   0,   0,   0, -123,  53, 2075,   0,   0,   0,   0, 1062, 1051, 1054, 1056, ANGLE_MODE, SMALL_ANGLE, IDLE, 1, 1
 60, 10178158,   0,   0,   0,   0,   0,   0,   0,   0,   0,   0,   0,   2, 1000,   0,   0,   1, -123,  53, 2073,   0,   0,   0,   0, 1051, 1050, 1051, 1052, ANGLE_MODE, SMALL_ANGLE, IDLE, 1, 1
 64, 10180234,   0,   0,   0,   0,   0,   0,   1,  -1,   0,   0,   0,   2, 1000,   0,   0,   1, -124,  53, 2072,   0,   0,   0,   0, 1050, 1054, 1053, 1055, ANGLE_MODE, SMALL_ANGLE, IDLE, 1, 1
 68, 10182335,   1,   0,   0,   0,   0,   0,   1,  -1,   0,   0,   0,   2, 1000,  -1,   0,   1, -126,  51, 2073,   0,   0,   0,   0, 1050, 1053, 1056, 1059, ANGLE_MODE, SMALL_ANGLE, IDLE, 1, 1
 72, 10184439,   1,   0,   2,   0,   0,   0,   3,   0,   0,   0,   0,   2, 1000,  -1,   0,   0, -126,  48, 2070,   0,   0,   0,   0, 1053, 1051, 1058, 1064, ANGLE_MODE, SMALL_ANGLE, IDLE, 1, 1
 76, 10186538,   0,  -1,   4,   0,   0,   0,   1,  -1,   0,   0,   0,   2, 1000,   0,   1,  -1, -126,  48, 2067,   0,   0,   0,   0, 1056, 1054, 1052, 1066, ANGLE_MODE, SMALL_ANGLE, IDLE, 1, 1
 80, 10188630,   0,   0,   4,   0,   0,   0,  -1,  -2,   0,   0,   0,   2, 1000,   0,   0,  -1, -126,  47, 2068,   0,   0,   0,   0, 1061, 1057, 1050, 1064, ANGLE_MODE, SMALL_ANGLE, IDLE, 1, 1
 84, 10190732,   0,   0,   4,   0,   0,   0,  -2,   0,   0,   0,   0,   2, 1000,   0,   0,  -1, -125,  47, 2068,   0,   0,   0,   0, 1064, 1054, 1051, 1058, ANGLE_MODE, SMALL_ANGLE, IDLE, 1, 1
 88, 10192874,   0,   0,   3,   0,   0,   0,  -1,   2,   0,   0,   0,   2, 1000,   0,   0,   0, -124,  47, 2068,   0,   0,   0,   0, 1064, 1052, 1053, 1054, ANGLE_MODE, SMALL_ANGLE, IDLE, 1, 1
 92, 10194986,   0,   1,   2,   0,   0,   0,  -1,   2,   0,   0,   0,   2, 1000,   0,  -1,   0, -122,  47, 2071,   0,   0,   0,   0, 1063, 1052, 1056, 1052, ANGLE_MODE, SMALL_ANGLE, IDLE, 1, 1
 96, 10197066,   0,   1,   1,   0,   0,   0,   0,   2,   0,   0,   0,   2, 1000,   0,  -1,   0, -121,  46, 2073,   0,   0,   0,   0, 1060, 1050, 1058, 1053, ANGLE_MODE, SMALL_ANGLE, IDLE, 1, 1
100, 10199170,   0,   0,   1,   0,   0,   0,   0,   0,   0,   0,   0,   2, 1000,   0,   0,   0, -122,  46, 2073,   0,   0,   0,   0, 1053, 1052, 1050, 1056, ANGLE_MODE, SMALL_ANGLE, IDLE, 1, 1
104, 10201297,   0,   0,   2,   0,   0,   0,   0,  -4,   0,   0,   0,   2, 1000,   0,   0,   0, -123,  44, 2073,   0,   0,   0,   0, 1055, 1060, 1050, 1063, ANGLE_MODE, SMALL_ANGLE, IDLE, 1, 1
108, 10203389,   0,   0,   3,   0,   0,   0,   0,  -2,   0,   0,   0,   2, 1000,   0,   0,   0, -124,  43, 2074,   0,   0,   0,   0, 1056, 1056, 1051, 1064, ANGLE_MODE, SMALL_ANGLE, IDLE, 1, 1
112, 10205463,   0,   0,   3,   0,   0,   0,   1,   0,   0,   0,   0,   2, 1000,   0,   0,  -1, -124,  42, 2072,   0,   0,   0,   0, 1056, 1051, 1054, 1064, ANGLE_MODE, SMALL_ANGLE, IDLE, 1, 1
116, 10207554,   0,   0,   3,   0,   0,   0,   1,   0,   0,   0,   0,   2, 1000,   0,   0,  -1, -124,  42, 2069,   0,   0,   0,   0, 1059, 1050, 1055, 1061, ANGLE_MODE, SMALL_ANGLE, IDLE, 1, 1
120, 10209631,   0,   0,   2,   0,   0,   0,   0,   2,   0,   0,   0,   2, 1000,   0,   0,   0, -123,  43, 2068,   0,   0,   0,   0, 1062, 1050, 1057, 1056, ANGLE_MODE, SMALL_ANGLE, IDLE, 1, 1
124, 10211705,   0,   0,   2,   0,   0,   0,   0,   2,   0,   0,   0,   2, 1000,   0,   0,   0, -123,  44, 2066,   0,   0,   0,   0, 1060, 1051, 1054, 1053, ANGLE_MODE, SMALL_ANGLE, IDLE, 1, 1
128, 10213799,   0,   0,   1,   0,   0,   0,  -1,   0,   0,   0,   0,   2, 1000,   0,   0,   0, -123,  45, 2062,   0,   0,   0,   0, 1056, 1053, 1050, 1053, ANGLE_MODE, SMALL_ANGLE, IDLE, 1, 1
132, 10215922,   0,   0,   1,   0,   0,   0,  -1,   0,   0,   0,   0,   2, 1000,   0,   0,   0, -123,  44, 2061,   0,   0,   0,   0, 1056, 1053, 1050, 1054, ANGLE_MODE, SMALL_ANGLE, IDLE, 1, 1
136, 10218030,   0,   0,   2,   0,   0,   0,   0,   0,   0,   0,   0,   2, 1000,   0,   0,   0, -123,  43, 2059,   0,   0,   0,   0, 1055, 1050, 1052, 1056, ANGLE_MODE, SMALL_ANGLE, IDLE, 1, 1
140, 10220107,   0,   0,   2,   0,   0,   0,   1,   0,   0,   0,   0,   2, 1000,   0,   0,   0, -123,  42, 2056,   0,   0,   0,   0, 1055, 1050, 1051, 1058, ANGLE_MODE, SMALL_ANGLE, IDLE, 1, 1
144, 10222227,   0,   0,   2,   0,   0,   0,  -1,   0,   0,   0,   0,   2, 1000,   0,   0,   0, -123,  42, 2058,   0,   0,   0,   0, 1058, 1054, 1050, 1057, ANGLE_MODE, SMALL_ANGLE, IDLE, 1, 1
148, 10224313,   0,   0,   2,   0,   0,   0,  -1,   0,   0,   0,   0,   2, 1000,   0,   0,   0, -124,  42, 2060,   0,   0,   0,   0, 1058, 1054, 1050, 1056, ANGLE_MODE, SMALL_ANGLE, IDLE, 1, 1
152, 10226396,   0,   0,   3,   0,   0,   0,   0,   0,   0,   0,   0,   2, 1000,   0,   0,   0, -123,  42, 2060,   0,   0,   0,   0, 1060, 1051, 1052, 1055, ANGLE_MODE, SMALL_ANGLE, IDLE, 1, 1
156, 10228479,   0,   1,   2,   0,   0,   0,   0,   2,   0,   0,   0,   2, 1000,   1,  -1,   0, -123,  44, 2061,   0,   0,   0,   0, 1063, 1051, 1055, 1054, ANGLE_MODE, SMALL_ANGLE, IDLE, 1, 1
160, 10230586,   0,   1,   2,   0,   0,   0,   0,   2,   0,   0,   0,   2, 1000,   0,  -1,   0, -123,  44, 2064,   0,   0,   0,   0, 1062, 1051, 1056, 1055, ANGLE_MODE, SMALL_ANGLE, IDLE, 1, 1
164, 10232785,   0,   0,   2,   0,   0,   0,   1,   0,   0,   0,   0,   2, 1000,   0,  -1,   0, -123,  44, 2064,   0,   0,   0,   0, 1056, 1050, 1053, 1056, ANGLE_MODE, SMALL_ANGLE, IDLE, 1, 1
168, 10234867,   0,   0,   2,   0,   0,   0,   0,  -1,   0,   0,   0,   2, 1000,   0,   0,   0, -124,  44, 2062,   0,   0,   0,   0, 1055, 1051, 1050, 1057, ANGLE_MODE, SMALL_ANGLE, IDLE, 1, 1
172, 10236954,   0,   0,   3,   0,   0,   0,   0,  -1,   0,   0,   0,   2, 1000,   0,   0,   0, -124,  44, 2062,   0,   0,   0,   0, 1057, 1053, 1050, 1059, ANGLE_MODE, SMALL_ANGLE, IDLE, 1, 1
176, 10239063,   0,   0,   3,   0,   0,   0,   0,  -1,   0,   0,   0,   2, 1000,   0,   0,   0, -124,  43, 2060,   0,   0,   0,   0, 1057, 1052, 1050, 1059, ANGLE_MODE, SMALL_ANGLE, IDLE, 1, 1
180, 10241177,   0,   0,   3,   0,   0,   0,   0,   0,   0,   0,   0,   2, 1000,   0,   0,   0, -124,  43, 2057,   0,   0,   0,   0, 1055, 1050, 1050, 1057, ANGLE_MODE, SMALL_ANGLE, IDLE, 1, 1
184, 10243313,   0,   0,   2,   0,   0,   0,   0,   0,   0,   0,   0,   2, 1000,   0,   0,   0, -124,  43, 2056,   0,   0,   0,   0, 1056, 1051, 1051, 1054, ANGLE_MODE, SMALL_ANGLE, IDLE, 1, 1
188, 10245417,   0,   0,   1,   0,   0,   0,   0,   0,   0,   0,   0,   2, 1000,   0,   0,   0, -123,  44, 2056,   0,   0,   0,   0, 1056, 1050, 1051, 1053, ANGLE_MODE, SMALL_ANGLE, IDLE, 1, 1
192, 10247551,   0,   0,   1,   0,   0,   0,   0,   0,   0,   0,   0,   2, 1000,   0,   0,   0, -123,  44, 2055,   0,   0,   0,   0, 1054, 1050, 1050, 1053, ANGLE_MODE, SMALL_ANGLE, IDLE, 1, 1
196, 10249650,   0,   0,   2,   0,   0,   0,   0,   0,   0,   0,   0,   2, 1000,   0,   0,   0, -123,  44, 2054,   0,   0,   0,   0, 1055, 1050, 1050, 1054, ANGLE_MODE, SMALL_ANGLE, IDLE, 1, 1
200, 10251746,   0,   0,   2,   0,   0,   0,   0,   0,   0,   0,   0,   2, 1000,   0,   0,   0, -124,  44, 2056,   0,   0,   0,   0, 1057, 1050, 1053, 1056, ANGLE_MODE, SMALL_ANGLE, IDLE, 1, 1
204, 10253856,   0,   0,   3,   0,   0,   0,   1,   0,   0,   0,   0,   2, 1000,   0,   0,   0, -124,  43, 2057,   0,   0,   0,   0, 1056, 1050, 1053, 1059, ANGLE_MODE, SMALL_ANGLE, IDLE, 1, 1
208, 10255984,   0,   0,   3,   0,   0,   0,   0,  -1,   0,   0,   0,   2, 1000,   0,   0,   0, -125,  43, 2056,   0,   0,   0,   0, 1056, 1053, 1050, 1060, ANGLE_MODE, SMALL_ANGLE, IDLE, 1, 1
212, 10258067,   0,   0,   2,   0,   0,   0,   0,  -1,   0,   0,   0,   2, 1000,   0,   0,   0, -126,  42, 2058,   0,   0,   0,   0, 1056, 1053, 1050, 1057, ANGLE_MODE, SMALL_ANGLE, IDLE, 1, 1
216, 10260150,   0,   0,   2,   0,   0,   0,   0,   0,   0,   0,   0,   2, 1000,   0,   0,   0, -126,  42, 2058,   0,   0,   0,   0, 1057, 1050, 1052, 1056, ANGLE_MODE, SMALL_ANGLE, IDLE, 1, 1
220, 10262279,   0,   0,   2,   0,   0,   0,   0,   0,   0,   0,   0,   2, 1000,   0,   0,   0, -126,  41, 2057,   0,   0,   0,   0, 1057, 1050, 1052, 1056, ANGLE_MODE, SMALL_ANGLE, IDLE, 1, 1
224, 10264388,   0,   0,   2,   0,   0,   0,   0,   0,   0,   0,   0,   2, 1000,   0,   0,   0, -126,  41, 2057,   0,   0,   0,   0, 1057, 1051, 1050, 1055, ANGLE_MODE, SMALL_ANGLE, IDLE, 1, 1
228, 10266485,   0,   0,   2,   0,   0,   0,   0,   0,   0,   0,   0,   2, 1000,   0,   0,   0, -126,  41, 2057,   0,   0,   0,   0, 1057, 1050, 1051, 1055, ANGLE_MODE, SMALL_ANGLE, IDLE, 1, 1
232, 10268575,   0,   0,   3,   0,   0,   0,   0,   0,   0,   0,   0,   2, 1000,   0,   0,   0, -126,  40, 2055,   0,   0,   0,   0, 1057, 1050, 1051, 1056, ANGLE_MODE, SMALL_ANGLE, IDLE, 1, 1
236, 10270697,   0,   0,   3,   0,   0,   0,   0,  -1,   0,   0,   0,   2, 1000,   0,   0,   0, -126,  40, 2054,   0,   0,   0,   0, 1057, 1053, 1050, 1058, ANGLE_MODE, SMALL_ANGLE, IDLE, 1, 1
240, 10272794,   0,   0,   2,   0,   0,   0,   0,  -1,   0,   0,   0,   2, 1000,   0,   0,   0, -126,  39, 2054,   0,   0,   0,   0, 1056, 1052, 1050, 1058, ANGLE_MODE, SMALL_ANGLE, IDLE, 1, 1
244, 10274866,   0,   0,   2,   0,   0,   0,   0,   0,   0,   0,   0,   2, 1000,   0,   0,   0, -126,  39, 2053,   0,   0,   0,   0, 1055, 1050, 1052, 1057, ANGLE_MODE, SMALL_ANGLE, IDLE, 1, 1
248, 10276965,   0,   0,   2,   0,   0,   0,   0,   0,   0,   0,   0,   2, 1000,   0,   0,   0, -126,  39, 2052,   0,   0,   0,   0, 1055, 1050, 1051, 1055, ANGLE_MODE, SMALL_ANGLE, IDLE, 1, 1
252, 10279049,   0,   0,   2,   0,   0,   0,   0,   0,   0,   0,   0,   2, 1000,   0,   0,   0, -126,  39, 2054,   0,   0,   0,   0, 1054, 1050, 1051, 1055, ANGLE_MODE, SMALL_ANGLE, IDLE, 1, 1
256, 10281128,   0,   0,   2,   0,   0,   0,   0,   0,   0,   0,   0,   2, 1000,   0,   0,   0, -126,  39, 2055,   0,   0,   0,   0, 1055, 1050, 1052, 1056, ANGLE_MODE, SMALL_ANGLE, IDLE, 1, 1
260, 10283259,   0,   0,   2,   0,   0,   0,   0,   0,   0,   0,   0,   2, 1000,   0,   0,   0, -127,  39, 2055,   0,   0,   0,   0, 1055, 1050, 1051, 1056, ANGLE_MODE, SMALL_ANGLE, IDLE, 1, 1
264, 10285370,   0,   0,   2,   0,   0,   0,   0,   0,   0,   0,   0,   2, 1000,   0,   0,   0, -127,  39, 2058,   0,   0,   0,   0, 1055, 1050, 1050, 1056, ANGLE_MODE, SMALL_ANGLE, IDLE, 1, 1
268, 10287474,   0,   0,   3,   0,   0,   0,   0,   0,   0,   0,   0,   2, 1000,   0,   0,   0, -127,  39, 2059,   0,   0,   0,   0, 1056, 1050, 1050, 1057, ANGLE_MODE, SMALL_ANGLE, IDLE, 1, 1
272, 10289554,   0,   0,   3,   0,   0,   0,   0,   0,   0,   0,   0,   2, 1000,   0,   0,   0, -127,  39, 2060,   0,   0,   0,   0, 1056, 1052, 1050, 1058, ANGLE_MODE, SMALL_ANGLE, IDLE, 1, 1
276, 10291650,   0,   0,   2,   0,   0,   0,   0,   0,   0,   0,   0,   2, 1000,   0,   0,   0, -127,  38, 2060,   0,   0,   0,   0, 1056, 1052, 1050, 1057, ANGLE_MODE, SMALL_ANGLE, IDLE, 1, 1
280, 10293814,   0,   0,   2,   0,   0,   0,   0,   0,   0,   0,   0,   2, 1000,   0,   0,   0, -126,  38, 2061,   0,   0,   0,   0, 1055, 1050, 1051, 1056, ANGLE_MODE, SMALL_ANGLE, IDLE, 1, 1
284, 10295905,   0,   0,   2,   0,   0,   0,   0,   0,   0,   0,   0,   2, 1000,   0,   0,   0, -126,  38, 2061,   0,   0,   0,   0, 1054, 1050, 1052, 1056, ANGLE_MODE, SMALL_ANGLE, IDLE, 1, 1
288, 10297989,   0,   0,   2,   0,   0,   0,   0,   0,   0,   0,   0,   2, 1000,   0,   0,   0, -126,  38, 2060,   0,   0,   0,   0, 1054, 1050, 1050, 1054, ANGLE_MODE, SMALL_ANGLE, IDLE, 1, 1
292, 10300123,   0,   0,   2,   0,   0,   0,   0,   0,   0,   0,   0,   2, 1000,   0,   0,   0, -126,  37, 2061,   0,   0,   0,   0, 1055, 1051, 1050, 1055, ANGLE_MODE, SMALL_ANGLE, IDLE, 1, 1
296, 10302260,   0,   0,   2,   0,   0,   0,   0,   0,   0,   0,   0,   2, 1000,   0,   0,   0, -125,  37, 2061,   0,   0,   0,   0, 1055, 1051, 1050, 1057, ANGLE_MODE, SMALL_ANGLE, IDLE, 1, 1
300, 10304341,   0,   0,   3,   0,   0,   0,   0,   0,   0,   0,   0,   2, 1000,   0,   0,   0, -125,  38, 2060,   0,   0,   0,   0, 1056, 1052, 1050, 1058, ANGLE_MODE, SMALL_ANGLE, IDLE, 1, 1
304, 10306430,   0,   0,   3,   0,   0,   0,   0,   0,   0,   0,   0,   2, 1000,   0,   0,   0, -124,  38, 2062,   0,   0,   0,   0, 1057, 1050, 1050, 1057, ANGLE_MODE, SMALL_ANGLE, IDLE, 1, 1
308, 10308556,   0,   0,   3,   0,   0,   0,   0,   0,   0,   0,   0,   2, 1000,   0,   0,   0, -124,  38, 2063,   0,   0,   0,   0, 1058, 1050, 1052, 1057, ANGLE_MODE, SMALL_ANGLE, IDLE, 1, 1
312, 10310660,   0,   0,   2,   0,   0,   0,   0,   0,   0,   0,   0,   2, 1000,   0,   0,   0, -123,  38, 2064,   0,   0,   0,   0, 1057, 1050, 1052, 1055, ANGLE_MODE, SMALL_ANGLE, IDLE, 1, 1
316, 10312757,   0,   0,   2,   0,   0,   0,   0,   0,   0,   0,   0,   2, 1000,   0,   0,   0, -123,  37, 2066,   0,   0,   0,   0, 1057, 1052, 1050, 1054, ANGLE_MODE, SMALL_ANGLE, IDLE, 1, 1
320, 10314864,   0,   0,   2,   0,   0,   0,   0,   0,   0,   0,   0,   2, 1000,   0,   0,   0, -123,  35, 2069,   0,   0,   0,   0, 1056, 1051, 1050, 1055, ANGLE_MODE, SMALL_ANGLE, IDLE, 1, 1
324, 10317007,   0,   0,   2,   0,   0,   0,   0,   0,   0,   0,   0,   2, 1000,   0,   0,   0, -123,  33, 2070,   0,   0,   0,   0, 1055, 1050, 1050, 1055, ANGLE_MODE, SMALL_ANGLE, IDLE, 1, 1
328, 10319091,   0,   0,   2,   0,   0,   0,   0,   0,   0,   0,   0,   2, 1000,   0,   0,   0, -123,  30, 2070,   0,   0,   0,   0, 1057, 1052, 1050, 1056, ANGLE_MODE, SMALL_ANGLE, IDLE, 1, 1
332, 10321170,   0,   0,   3,   0,   0,   0,   0,   0,   0,   0,   0,   2, 1000,   0,   0,   0, -123,  27, 2071,   0,   0,   0,   0, 1058, 1051, 1050, 1056, ANGLE_MODE, SMALL_ANGLE, IDLE, 1, 1
336, 10323262,   0,   0,   3,   0,   0,   0,   0,   0,   0,   0,   0,   2, 1000,   0,   0,   0, -123,  24, 2070,   0,   0,   0,   0, 1059, 1050, 1053, 1057, ANGLE_MODE, SMALL_ANGLE, IDLE, 1, 1
340, 10325424,   0,   0,   3,   0,   0,   0,   0,   0,   0,   0,   0,   2, 1000,   0,   0,   0, -123,  21, 2069,   0,   0,   0,   0, 1059, 1050, 1053, 1056, ANGLE_MODE, SMALL_ANGLE, IDLE, 1, 1
344, 10327509,   0,   0,   2,   0,   0,   0,   0,   0,   0,   0,   0,   2, 1000,   0,   0,   0, -123,  18, 2069,   0,   0,   0,   0, 1057, 1050, 1051, 1055, ANGLE_MODE, SMALL_ANGLE, IDLE, 1, 1
348, 10329592,   0,   0,   2,   0,   0,   0,   0,   0,   0,   0,   0,   2, 1000,   0,   0,   0, -123,  14, 2068,   0,   0,   0,   0, 1055, 1050, 1051, 1055, ANGLE_MODE, SMALL_ANGLE, IDLE, 1, 1
352, 10331700,   0,   0,   2,   0,   0,   0,   0,   0,   0,   0,   0,   2, 1000,   0,   0,   0, -123,  11, 2066,   0,   0,   0,   0, 1054, 1050, 1050, 1054, ANGLE_MODE, SMALL_ANGLE, IDLE, 1, 1
356, 10333830,   0,   0,   1,   0,   0,   0,   0,   0,   0,   0,   0,   2, 1000,   0,   0,   0, -123,   7, 2066,   0,   0,   0,   0, 1054, 1051, 1050, 1054, ANGLE_MODE, SMALL_ANGLE, IDLE, 1, 1
360, 10335911,   0,   0,   2,   0,   0,   0,   0,   0,   0,   0,   0,   2, 1000,   0,   0,   0, -123,   3, 2066,   0,   0,   0,   0, 1054, 1050, 1050, 1055, ANGLE_MODE, SMALL_ANGLE, IDLE, 1, 1
364, 10338015,   0,   0,   2,   0,   0,   0,   0,   0,   0,   0,   0,   2, 1000,   0,   0,   0, -123,   0, 2065,   0,   0,   0,   0, 1055, 1050, 1050, 1056, ANGLE_MODE, SMALL_ANGLE, IDLE, 1, 1
368, 10340140,   0,   0,   3,   0,   0,   0,   0,   0,   0,   0,   0,   2, 1000,   0,   0,   0, -123,  -3, 2065,   0,   0,   0,   0, 1056, 1051, 1050, 1056, ANGLE_MODE, SMALL_ANGLE, IDLE, 1, 1
372, 10342246,   0,   0,   3,   0,   0,   0,   0,   0,   0,   0,   0,   2, 1000,   0,   0,   0, -123,  -6, 2066,   0,   0,   0,   0, 1057, 1050, 1050, 1056, ANGLE_MODE, SMALL_ANGLE, IDLE, 1, 1
376, 10344319,   0,   0,   2,   0,   0,   0,   0,   0,   0,   0,   0,   2, 1000,   0,   0,   0, -123,  -9, 2065,   0,   0,   0,   0, 1057, 1050, 1051, 1056, ANGLE_MODE, SMALL_ANGLE, IDLE, 1, 1
380, 10346432,   0,   0,   2,   0,   0,   0,   0,   0,   0,   0,   0,   2, 1000,   0,   0,   0, -123, -12, 2064,   0,   0,   0,   0, 1055, 1050, 1050, 1055, ANGLE_MODE, SMALL_ANGLE, IDLE, 1, 1
384, 10348561,   0,   0,   2,   0,   0,   0,   0,   0,   0,   0,   0,   2, 1000,   0,   0,   0, -123, -14, 2065,   0,   0,   0,   0, 1055, 1050, 1050, 1056, ANGLE_MODE, SMALL_ANGLE, IDLE, 1, 1
388, 10350669,   0,   0,   2,   0,   0,   0,   0,   0,   0,   0,   0,   2, 1000,   0,   0,   0, -124, -16, 2065,   0,   0,   0,   0, 1055, 1050, 1052, 1058, ANGLE_MODE, SMALL_ANGLE, IDLE, 1, 1
392, 10352769,   0,   0,   2,   0,   0,   0,   0,   0,   0,   0,   0,   2, 1000,   0,   0,   0, -124, -18, 2063,   0,   0,   0,   0, 1055, 1050, 1052, 1058, ANGLE_MODE, SMALL_ANGLE, IDLE, 1, 1
396, 10354860,   0,   0,   2,   0,   0,   0,   0,   0,   0,   0,   0,   2, 1000,   0,   0,   0, -124, -20, 2063,   0,   0,   0,   0, 1057, 1050, 1051, 1056, ANGLE_MODE, SMALL_ANGLE, IDLE, 1, 1
400, 10356961,   0,   0,   3,   0,   0,   0,   0,   0,   0,   0,   0,   2, 1000,   0,   0,   0, -124, -21, 2063,   0,   0,   0,   0, 1058, 1051, 1051, 1055, ANGLE_MODE, SMALL_ANGLE, IDLE, 1, 1
404, 10359053,   0,   0,   2,   0,   0,   0,   0,   0,   0,   0,   0,   2, 1000,   0,   0,   0, -124, -22, 2062,   0,   0,   0,   0, 1057, 1050, 1051, 1056, ANGLE_MODE, SMALL_ANGLE, IDLE, 1, 1
408, 10361189,   0,   0,   2,   0,   0,   0,   0,   0,   0,   0,   0,   2, 1000,   0,   0,   0, -124, -22, 2061,   0,   0,   0,   0, 1056, 1050, 1051, 1056, ANGLE_MODE, SMALL_ANGLE, IDLE, 1, 1
412, 10363343,   0,   0,   2,   0,   0,   0,   0,   0,   0,   0,   0,   2, 1000,   0,   0,   0, -124, -22, 2061,   0,   0,   0,   0, 1056, 1050, 1051, 1055, ANGLE_MODE, SMALL_ANGLE, IDLE, 1, 1
416, 10365404,   0,   0,   2,   0,   0,   0,   0,   0,   0,   0,   0,   2, 1000,   0,   0,   0, -124, -22, 2061,   0,   0,   0,   0, 1056, 1051, 1050, 1055, ANGLE_MODE, SMALL_ANGLE, IDLE, 1, 1
420, 10367513,   0,   0,   2,   0,   0,   0,   0,   0,   0,   0,   0,   2, 1000,   0,   0,   0, -124, -21, 2061,   0,   0,   0,   0, 1057, 1053, 1050, 1056, ANGLE_MODE, SMALL_ANGLE, IDLE, 1, 1
424, 10369613,   0,   0,   3,   0,   0,   0,   0,   0,   0,   0,   0,   2, 1000,   0,   0,   0, -125, -19, 2062,   0,   0,   0,   0, 1057, 1051, 1050, 1056, ANGLE_MODE, SMALL_ANGLE, IDLE, 1, 1
428, 10371707,   0,   0,   2,   0,   0,   0,   0,   0,   0,   0,   0,   2, 1000,   0,   0,   0, -125, -17, 2062,   0,   0,   0,   0, 1056, 1050, 1052, 1057, ANGLE_MODE, SMALL_ANGLE, IDLE, 1, 1
432, 10373811,   0,   0,   2,   0,   0,   0,   0,   0,   0,   0,   0,   2, 1000,   0,   0,   0, -125, -14, 2062,   0,   0,   0,   0, 1055, 1050, 1051, 1057, ANGLE_MODE, SMALL_ANGLE, IDLE, 1, 1
436, 10375900,   0,   0,   2,   0,   0,   0,   0,   0,   0,   0,   0,   2, 1000,   0,   0,   0, -125, -11, 2063,   0,   0,   0,   0, 1055, 1051, 1050, 1057, ANGLE_MODE, SMALL_ANGLE, IDLE, 1, 1
440, 10377996,   0,   0,   2,   0,   0,   0,   0,   0,   0,   0,   0,   2, 1000,   0,   0,   0, -125,  -8, 2064,   0,   0,   0,   0, 1055, 1050, 1050, 1056, ANGLE_MODE, SMALL_ANGLE, IDLE, 1, 1
444, 10380093,   0,   0,   2,   0,   0,   0,   0,   0,   0,   0,   0,   2, 1000,   0,   0,   0, -125,  -5, 2063,   0,   0,   0,   0, 1055, 1050, 1050, 1055, ANGLE_MODE, SMALL_ANGLE, IDLE, 1, 1
448, 10382186,   0,   0,   2,   0,   0,   0,   0,   0,   0,   0,   0,   2, 1000,   0,   0,   0, -125,  -2, 2062,   0,   0,   0,   0, 1055, 1050, 1050, 1056, ANGLE_MODE, SMALL_ANGLE, IDLE, 1, 1
452, 10384326,   0,   0,   2,   0,   0,   0,   0,   0,   0,   0,   0,   2, 1000,   0,   0,   0, -126,   2, 2063,   0,   0,   0,   0, 1055, 1050, 1051, 1056, ANGLE_MODE, SMALL_ANGLE, IDLE, 1, 1
456, 10386465,   0,   0,   2,   0,   0,   0,   0,   0,   0,   0,   0,   2, 1000,   0,   0,   0, -126,   5, 2063,   0,   0,   0,   0, 1055, 1050, 1051, 1057, ANGLE_MODE, SMALL_ANGLE, IDLE, 1, 1
460, 10388544,   0,   0,   2,   0,   0,   0,   0,   0,   0,   0,   0,   2, 1000,   0,   0,   0, -126,   9, 2063,   0,   0,   0,   0, 1055, 1051, 1051, 1057, ANGLE_MODE, SMALL_ANGLE, IDLE, 1, 1
464, 10390617,   0,   0,   2,   0,   0,   0,   0,   0,   0,   0,   0,   2, 1000,   0,   0,   0, -126,  13, 2064,   0,   0,   0,   0, 1055, 1052, 1050, 1057, ANGLE_MODE, SMALL_ANGLE, IDLE, 1, 1
468, 10392705,   0,   0,   2,   0,   0,   0,   0,   0,   0,   0,   0,   2, 1000,   0,   0,   0, -126,  16, 2065,   0,   0,   0,   0, 1054, 1050, 1050, 1054, ANGLE_MODE, SMALL_ANGLE, IDLE, 1, 1
472, 10394840,   0,   0,   2,   0,   0,   0,   0,   1,   0,   0,   0,   2, 1000,   0,   0,   0, -126,  19, 2065,   0,   0,   0,   0, 1056, 1050, 1053, 1055, ANGLE_MODE, SMALL_ANGLE, IDLE, 1, 1
476, 10396917,   0,   0,   2,   0,   0,   0,   0,   1,   0,   0,   0,   2, 1000,   0,   0,   0, -126,  22, 2065,   0,   0,   0,   0, 1058, 1050, 1053, 1055, ANGLE_MODE, SMALL_ANGLE, IDLE, 1, 1
480, 10398990,   0,   0,   2,   0,   0,   0,   0,   0,   0,   0,   0,   2, 1000,   0,   0,   0, -126,  24, 2066,   0,   0,   0,   0, 1058, 1050, 1051, 1055, ANGLE_MODE, SMALL_ANGLE, IDLE, 1, 1
484, 10401124,   0,   0,   3,   0,   0,   0,   0,   0,   0,   0,   0,   2, 1000,   0,   0,   0, -126,  27, 2066,   0,   0,   0,   0, 1058, 1052, 1050, 1057, ANGLE_MODE, SMALL_ANGLE, IDLE, 1, 1
488, 10403236,   0,   0,   3,   0,   0,   0,   0,   0,   0,   0,   0,   2, 1000,   0,   0,   0, -126,  29, 2066,   0,   0,   0,   0, 1057, 1052, 1050, 1058, ANGLE_MODE, SMALL_ANGLE, IDLE, 1, 1
492, 10405309,   0,   0,   3,   0,   0,   0,   0,   0,   0,   0,   0,   2, 1000,   0,   0,   0, -127,  31, 2066,   0,   0,   0,   0, 1056, 1051, 1050, 1057, ANGLE_MODE, SMALL_ANGLE, IDLE, 1, 1
496, 10407396,   0,   0,   2,   0,   0,   0,   0,   0,   0,   0,   0,   2, 1000,   0,   0,   0, -127,  34, 2066,   0,   0,   0,   0, 1057, 1050, 1051, 1055, ANGLE_MODE, SMALL_ANGLE, IDLE, 1, 1
500, 10409599,   0,   0,   2,   0,   0,   0,   0,   0,   0,   0,   0,   2, 1000,   0,   0,   0, -127,  35, 2066,   0,   0,   0,   0, 1057, 1050, 1051, 1054, ANGLE_MODE, SMALL_ANGLE, IDLE, 1, 1
504, 10411680,   0,   0,   2,   0,   0,   0,   0,   0,   0,   0,   0,   2, 1000,   0,   0,   0, -126,  36, 2065,   0,   0,   0,   0, 1056, 1050, 1050, 1054, ANGLE_MODE, SMALL_ANGLE, IDLE, 1, 1
508, 10413768,   0,   0,   2,   0,   0,   0,   0,   0,   0,   0,   0,   2, 1000,   0,   0,   0, -126,  36, 2065,   0,   0,   0,   0, 1057, 1051, 1050, 1055, ANGLE_MODE, SMALL_ANGLE, IDLE, 1, 1
512, 10415866,   0,   0,   3,   0,   0,   0,   0,   0,   0,   0,   0,   2, 1000,   0,   0,   0, -126,  35, 2064,   0,   0,   0,   0, 1057, 1051, 1050, 1056, ANGLE_MODE, SMALL_ANGLE, IDLE, 1, 1
516, 10417982,   0,   0,   3,   0,   0,   0,   0,   0,   0,   0,   0,   2, 1000,   0,   0,   0, -126,  34, 2063,   0,   0,   0,   0, 1056, 1051, 1050, 1058, ANGLE_MODE, SMALL_ANGLE, IDLE, 1, 1
520, 10420066,   0,   0,   3,   0,   0,   0,   0,   0,   0,   0,   0,   2, 1000,   0,   0,   0, -126,  32, 2063,   0,   0,   0,   0, 1055, 1051, 1052, 1059, ANGLE_MODE, SMALL_ANGLE, IDLE, 1, 1
524, 10422162,   0,   0,   2,   0,   0,   0,   0,   0,   0,   0,   0,   2, 1000,   0,   0,   0, -125,  30, 2063,   0,   0,   0,   0, 1056, 1050, 1051, 1056, ANGLE_MODE, SMALL_ANGLE, IDLE, 1, 1
528, 10424267,   0,   0,   2,   0,   0,   0,   0,   0,   0,   0,   0,   2, 1000,   0,   0,   0, -125,  27, 2062,   0,   0,   0,   0, 1056, 1050, 1051, 1055, ANGLE_MODE, SMALL_ANGLE, IDLE, 1, 1
532, 10426358,   0,   0,   2,   0,   0,   0,   0,   0,   0,   0,   0,   2, 1000,   0,   0,   0, -125,  24, 2062,   0,   0,   0,   0, 1055, 1050, 1051, 1054, ANGLE_MODE, SMALL_ANGLE, IDLE, 1, 1
536, 10428434,   0,   0,   2,   0,   0,   0,   0,   0,   0,   0,   0,   2, 1000,   0,   0,   0, -124,  21, 2062,   0,   0,   0,   0, 1054, 1050, 1050, 1055, ANGLE_MODE, SMALL_ANGLE, IDLE, 1, 1
540, 10430536,   0,   0,   2,   0,   0,   0,   0,   0,   0,   0,   0,   2, 1000,   0,   0,   0, -123,  17, 2063,   0,   0,   0,   0, 1055, 1051, 1050, 1056, ANGLE_MODE, SMALL_ANGLE, IDLE, 1, 1
544, 10432665,   0,   0,   2,   0,   0,   0,   0,   0,   0,   0,   0,   2, 1000,   0,   0,   0, -123,  14, 2063,   0,   0,   0,   0, 1055, 1050, 1050, 1056, ANGLE_MODE, SMALL_ANGLE, IDLE, 1, 1
548, 10434774,   0,   0,   2,   0,   0,   0,   0,   0,   0,   0,   0,   2, 1000,   0,   0,   0, -122,  10, 2063,   0,   0,   0,   0, 1056, 1050, 1050, 1056, ANGLE_MODE, SMALL_ANGLE, IDLE, 1, 1
552, 10436850,   0,   0,   3,   0,   0,   0,   0,   0,   0,   0,   0,   2, 1000,   0,   0,   0, -122,   7, 2063,   0,   0,   0,   0, 1056, 1051, 1050, 1056, ANGLE_MODE, SMALL_ANGLE, IDLE, 1, 1
556, 10438952,   0,   0,   2,   0,   0,   0,   0,   0,   0,   0,   0,   2, 1000,   0,   0,   0, -122,   4, 2062,   0,   0,   0,   0, 1057, 1051, 1050, 1055, ANGLE_MODE, SMALL_ANGLE, IDLE, 1, 1
560, 10441081,   0,   0,   2,   0,   0,   0,   0,   1,   0,   0,   0,   2, 1000,   0,   0,   0, -122,   1, 2062,   0,   0,   0,   0, 1058, 1050, 1053, 1055, ANGLE_MODE, SMALL_ANGLE, IDLE, 1, 1
564, 10443170,   0,   0,   2,   0,   0,   0,   0,   0,   0,   0,   0,   2, 1000,   0,   0,   0, -122,  -2, 2062,   0,   0,   0,   0, 1057, 1050, 1053, 1056, ANGLE_MODE, SMALL_ANGLE, IDLE, 1, 1
568, 10445250,   0,   0,   2,   0,   0,   0,   0,   0,   0,   0,   0,   2, 1000,   0,   0,   0, -123,  -5, 2061,   0,   0,   0,   0, 1056, 1050, 1050, 1056, ANGLE_MODE, SMALL_ANGLE, IDLE, 1, 1
572, 10447336,   0,   0,   2,   0,   0,   0,   0,   0,   0,   0,   0,   2, 1000,   0,   0,   0, -123,  -7, 2061,   0,   0,   0,   0, 1056, 1051, 1050, 1056, ANGLE_MODE, SMALL_ANGLE, IDLE, 1, 1
576, 10449435,   0,   0,   2,   0,   0,   0,   0,   0,   0,   0,   0,   2, 1000,   0,   0,   0, -124, -10, 2061,   0,   0,   0,   0, 1056, 1050, 1050, 1055, ANGLE_MODE, SMALL_ANGLE, IDLE, 1, 1
580, 10451538,   0,   0,   2,   0,   0,   0,   0,   0,   0,   0,   0,   2, 1000,   0,   0,   0, -124, -13, 2061,   0,   0,   0,   0, 1057, 1051, 1050, 1055, ANGLE_MODE, SMALL_ANGLE, IDLE, 1, 1
584, 10453685,   0,   0,   2,   0,   0,   0,   0,   0,   0,   0,   0,   2, 1000,   0,   0,   0, -124, -16, 2062,   0,   0,   0,   0, 1057, 1051, 1050, 1055, ANGLE_MODE, SMALL_ANGLE, IDLE, 1, 1
588, 10455804,   0,   0,   2,   0,   0,   0,   0,   0,   0,   0,   0,   2, 1000,   0,   0,   0, -124, -18, 2063,   0,   0,   0,   0, 1057, 1050, 1052, 1056, ANGLE_MODE, SMALL_ANGLE, IDLE, 1, 1
592, 10457890,   0,   0,   2,   0,   0,   0,   0,   0,   0,   0,   0,   2, 1000,   0,   0,   0, -125, -20, 2063,   0,   0,   0,   0, 1057, 1050, 1052, 1055, ANGLE_MODE, SMALL_ANGLE, IDLE, 1, 1
596, 10459966,   0,   0,   2,   0,   0,   0,   0,   0,   0,   0,   0,   2, 1000,   0,   0,   0, -125, -22, 2063,   0,   0,   0,   0, 1055, 1050, 1050, 1055, ANGLE_MODE, SMALL_ANGLE, IDLE, 1, 1
600, 10462081,   0,   0,   2,   0,   0,   0,   0,  -1,   0,   0,   0,   2, 1000,   0,   0,   0, -125, -23, 2064,   0,   0,   0,   0, 1054, 1052, 1050, 1057, ANGLE_MODE, SMALL_ANGLE, IDLE, 1, 1
604, 10464206,   0,   0,   2,   0,   0,   0,   0,   0,   0,   0,   0,   2, 1000,   0,   0,   0, -125, -25, 2064,   0,   0,   0,   0, 1055, 1051, 1050, 1056, ANGLE_MODE, SMALL_ANGLE, IDLE, 1, 1
608, 10466280,   0,   0,   2,   0,   0,   0,   0,   0,   0,   0,   0,   2, 1000,   0,   0,   0, -125, -26, 2065,   0,   0,   0,   0, 1056, 1050, 1051, 1056, ANGLE_MODE, SMALL_ANGLE, IDLE, 1, 1
612, 10468363,   0,   0,   2,   0,   0,   0,   0,   0,   0,   0,   0,   2, 1000,   0,   0,   0, -125, -27, 2065,   0,   0,   0,   0, 1056, 1050, 1052, 1057, ANGLE_MODE, SMALL_ANGLE, IDLE, 1, 1
616, 10470463,   0,   0,   2,   0,   0,   0,   0,   0,   0,   0,   0,   2, 1000,   0,   0,   0, -125, -28, 2065,   0,   0,   0,   0, 1055, 1050, 1051, 1057, ANGLE_MODE, SMALL_ANGLE, IDLE, 1, 1
620, 10472568,   0,   0,   2,   0,   0,   0,   0,   0,   0,   0,   0,   2, 1000,   0,   0,   0, -125, -28, 2065,   0,   0,   0,   0, 1055, 1050, 1050, 1055, ANGLE_MODE, SMALL_ANGLE, IDLE, 1, 1
624, 10474656,   0,   0,   2,   0,   0,   0,   0,   0,   0,   0,   0,   2, 1000,   0,   0,   0, -125, -28, 2065,   0,   0,   0,   0, 1055, 1051, 1050, 1055, ANGLE_MODE, SMALL_ANGLE, IDLE, 1, 1
628, 10476749,   0,   0,   2,   0,   0,   0,   0,   0,   0,   0,   0,   2, 1000,   0,   0,   0, -125, -28, 2065,   0,   0,   0,   0, 1055, 1051, 1050, 1055, ANGLE_MODE, SMALL_ANGLE, IDLE, 1, 1
632, 10478881,   0,   0,   2,   0,   0,   0,   0,   0,   0,   0,   0,   2, 1000,   0,   0,   0, -125, -28, 2065,   0,   0,   0,   0, 1056, 1051, 1050, 1055, ANGLE_MODE, SMALL_ANGLE, IDLE, 1, 1
636, 10480956,   0,   0,   2,   0,   0,   0,   0,   0,   0,   0,   0,   2, 1000,   0,   0,   0, -125, -28, 2065,   0,   0,   0,   0, 1056, 1050, 1051, 1056, ANGLE_MODE, SMALL_ANGLE, IDLE, 1, 1
640, 10483073,   0,   0,   2,   0,   0,   0,   0,   0,   0,   0,   0,   2, 1000,   0,   0,   0, -125, -28, 2065,   0,   0,   0,   0, 1056, 1050, 1052, 1056, ANGLE_MODE, SMALL_ANGLE, IDLE, 1, 1
644, 10485208,   0,   0,   2,   0,   0,   0,   0,   0,   0,   0,   0,   2, 1000,   0,   0,   0, -126, -28, 2065,   0,   0,   0,   0, 1056, 1050, 1051, 1056, ANGLE_MODE, SMALL_ANGLE, IDLE, 1, 1
648, 10487345,   0,   0,   3,   0,   0,   0,   0,   0,   0,   0,   0,   2, 1000,   0,   0,   0, -126, -28, 2065,   0,   0,   0,   0, 1057, 1050, 1051, 1056, ANGLE_MODE, SMALL_ANGLE, IDLE, 1, 1
652, 10489436,   0,   0,   3,   0,   0,   0,   0,   0,   0,   0,   0,   2, 1000,   0,   0,   0, -126, -27, 2065,   0,   0,   0,   0, 1057, 1050, 1051, 1056, ANGLE_MODE, SMALL_ANGLE, IDLE, 1, 1
656, 10491517,   0,   0,   2,   0,   0,   0,   0,   0,   0,   0,   0,   2, 1000,   0,   0,   0, -127, -27, 2066,   0,   0,   0,   0, 1057, 1050, 1052, 1056, ANGLE_MODE, SMALL_ANGLE, IDLE, 1, 1
660, 10493614,   0,   0,   2,   0,   0,   0,   0,   0,   0,   0,   0,   2, 1000,   0,   0,   0, -127, -27, 2065,   0,   0,   0,   0, 1057, 1050, 1051, 1056, ANGLE_MODE, SMALL_ANGLE, IDLE, 1, 1
664, 10495714,   0,   0,   2,   0,   0,   0,   0,   0,   0,   0,   0,   2, 1000,   0,   0,   0, -126, -28, 2065,   0,   0,   0,   0, 1055, 1050, 1050, 1055, ANGLE_MODE, SMALL_ANGLE, IDLE, 1, 1
668, 10497803,   0,   0,   2,   0,   0,   0,   0,   0,   0,   0,   0,   2, 1000,   0,   0,   0, -127, -27, 2065,   0,   0,   0,   0, 1055, 1051, 1050, 1056, ANGLE_MODE, SMALL_ANGLE, IDLE, 1, 1
672, 10499893,   0,   0,   2,   0,   0,   0,   0,   0,   0,   0,   0,   2, 1000,   0,   0,   0, -126, -27, 2064,   0,   0,   0,   0, 1056, 1050, 1050, 1056, ANGLE_MODE, SMALL_ANGLE, IDLE, 1, 1
676, 10502051,   0,   0,   3,   0,   0,   0,   0,   0,   0,   0,   0,   2, 1000,   0,   0,   0, -126, -27, 2064,   0,   0,   0,   0, 1056, 1050, 1050, 1056, ANGLE_MODE, SMALL_ANGLE, IDLE, 1, 1
680, 10504144,   0,   0,   3,   0,   0,   0,   0,   0,   0,   0,   0,   2, 1000,   0,   0,   0, -126, -27, 2063,   0,   0,   0,   0, 1056, 1050, 1051, 1057, ANGLE_MODE, SMALL_ANGLE, IDLE, 1, 1
684, 10506218,   0,   0,   2,   0,   0,   0,   0,   0,   0,   0,   0,   2, 1000,   0,   0,   0, -125, -26, 2063,   0,   0,   0,   0, 1055, 1050, 1050, 1056, ANGLE_MODE, SMALL_ANGLE, IDLE, 1, 1
688, 10508312,   0,   0,   2,   0,   0,   0,   0,   0,   0,   0,   0,   2, 1000,   0,   0,   0, -125, -26, 2063,   0,   0,   0,   0, 1055, 1050, 1050, 1055, ANGLE_MODE, SMALL_ANGLE, IDLE, 1, 1
692, 10510489,   0,   0,   2,   0,   0,   0,   0,   0,   0,   0,   0,   2, 1000,   0,   0,   0, -124, -26, 2063,   0,   0,   0,   0, 1054, 1050, 1050, 1055, ANGLE_MODE, SMALL_ANGLE, IDLE, 1, 1
696, 10512586,   0,   0,   2,   0,   0,   0,   0,   0,   0,   0,   0,   2, 1000,   0,   0,   0, -124, -26, 2063,   0,   0,   0,   0, 1054, 1051, 1050, 1056, ANGLE_MODE, SMALL_ANGLE, IDLE, 1, 1
700, 10514697,   0,   0,   2,   0,   0,   0,   0,   0,   0,   0,   0,   2, 1000,   0,   0,   0, -124, -26, 2063,   0,   0,   0,   0, 1055, 1050, 1050, 1056, ANGLE_MODE, SMALL_ANGLE, IDLE, 1, 1
704, 10516796,   0,   0,   2,   0,   0,   0,   0,   0,   0,   0,   0,   2, 1000,   0,   0,   0, -123, -26, 2063,   0,   0,   0,   0, 1055, 1050, 1051, 1056, ANGLE_MODE, SMALL_ANGLE, IDLE, 1, 1
708, 10518921,   0,   0,   2,   0,   0,   0,   0,   0,   0,   0,   0,   2, 1000,   0,   0,   0, -123, -26, 2064,   0,   0,   0,   0, 1055, 1050, 1050, 1055, ANGLE_MODE, SMALL_ANGLE, IDLE, 1, 1
712, 10521007,   0,   0,   2,   0,   0,   0,   0,   0,   0,   0,   0,   2, 1000,   0,   0,   0, -123, -26, 2065,   0,   0,   0,   0, 1057, 1051, 1051, 1054, ANGLE_MODE, SMALL_ANGLE, IDLE, 1, 1
716, 10523116,   0,   0,   2,   0,   0,   0,   0,   0,   0,   0,   0,   2, 1000,   0,   0,   0, -123, -25, 2065,   0,   0,   0,   0, 1058, 1050, 1052, 1055, ANGLE_MODE, SMALL_ANGLE, IDLE, 1, 1
720, 10525251,   0,   0,   2,   0,   0,   0,   0,   0,   0,   0,   0,   2, 1000,   0,   0,   0, -123, -25, 2065,   0,   0,   0,   0, 1057, 1050, 1052, 1055, ANGLE_MODE, SMALL_ANGLE, IDLE, 1, 1
724, 10527333,   0,   0,   2,   0,   0,   0,   0,   0,   0,   0,   0,   2, 1000,   0,   0,   0, -124, -25, 2066,   0,   0,   0,   0, 1057, 1051, 1050, 1055, ANGLE_MODE, SMALL_ANGLE, IDLE, 1, 1
728, 10529408,   0,   0,   2,   0,   0,   0,   0,   0,   0,   0,   0,   2, 1000,   0,   0,   0, -124, -25, 2067,   0,   0,   0,   0, 1057, 1052, 1050, 1056, ANGLE_MODE, SMALL_ANGLE, IDLE, 1, 1
732, 10531523,   0,   0,   2,   0,   0,   0,   0,   0,   0,   0,   0,   2, 1000,   0,   0,   0, -125, -25, 2067,   0,   0,   0,   0, 1057, 1050, 1050, 1056, ANGLE_MODE, SMALL_ANGLE, IDLE, 1, 1
736, 10533637,   0,   0,   2,   0,   0,   0,   0,   0,   0,   0,   0,   2, 1000,   0,   0,   0, -125, -25, 2067,   0,   0,   0,   0, 1058, 1050, 1052, 1055, ANGLE_MODE, SMALL_ANGLE, IDLE, 1, 1
740, 10535743,   0,   0,   2,   0,   0,   0,   0,   1,   0,   0,   0,   2, 1000,   0,   0,   0, -126, -26, 2067,   0,   0,   0,   0, 1059, 1051, 1053, 1054, ANGLE_MODE, SMALL_ANGLE, IDLE, 1, 1
744, 10537844,   0,   0,   2,   0,   0,   0,   0,   0,   0,   0,   0,   2, 1000,   0,   0,   0, -126, -26, 2067,   0,   0,   0,   0, 1058, 1051, 1052, 1054, ANGLE_MODE, SMALL_ANGLE, IDLE, 1, 1
748, 10539968,   0,   0,   2,   0,   0,   0,   0,   0,   0,   0,   0,   2, 1000,   0,   0,   0, -126, -26, 2067,   0,   0,   0,   0, 1056, 1050, 1051, 1055, ANGLE_MODE, SMALL_ANGLE, IDLE, 1, 1
752, 10542077,   0,   0,   2,   0,   0,   0,   0,   0,   0,   0,   0,   2, 1000,   0,   0,   0, -126, -26, 2067,   0,   0,   0,   0, 1055, 1050, 1050, 1054, ANGLE_MODE, SMALL_ANGLE, IDLE, 1, 1
756, 10544174,   0,   0,   2,   0,   0,   0,   0,   0,   0,   0,   0,   2, 1000,   0,   0,   0, -126, -26, 2067,   0,   0,   0,   0, 1055, 1051, 1050, 1055, ANGLE_MODE, SMALL_ANGLE, IDLE, 1, 1
760, 10546258,   0,   0,   2,   0,   0,   0,   0,   0,   0,   0,   0,   2, 1000,   0,   0,   0, -126, -26, 2066,   0,   0,   0,   0, 1056, 1050, 1050, 1056, ANGLE_MODE, SMALL_ANGLE, IDLE, 1, 1
764, 10548400,   0,   0,   3,   0,   0,   0,   0,   0,   0,   0,   0,   2, 1000,   0,   0,   0, -126, -26, 2066,   0,   0,   0,   0, 1057, 1050, 1051, 1056, ANGLE_MODE, SMALL_ANGLE, IDLE, 1, 1
768, 10550460,   0,   0,   2,   0,   0,   0,   0,   0,   0,   0,   0,   2, 1000,   0,   0,   0, -126, -26, 2067,   0,   0,   0,   0, 1058, 1050, 1051, 1055, ANGLE_MODE, SMALL_ANGLE, IDLE, 1, 1
772, 10552564,   0,   0,   2,   0,   0,   0,   0,   0,   0,   0,   0,   2, 1000,   0,   0,   0, -126, -26, 2067,   0,   0,   0,   0, 1056, 1050, 1050, 1055, ANGLE_MODE, SMALL_ANGLE, IDLE, 1, 1
776, 10554677,   0,   0,   2,   0,   0,   0,   0,   0,   0,   0,   0,   2, 1000,   0,   0,   0, -126, -26, 2067,   0,   0,   0,   0, 1056, 1051, 1050, 1056, ANGLE_MODE, SMALL_ANGLE, IDLE, 1, 1
780, 10556765,   0,   0,   2,   0,   0,   0,   0,   0,   0,   0,   0,   2, 1000,   0,   0,   0, -126, -26, 2067,   0,   0,   0,   0, 1056, 1050, 1050, 1055, ANGLE_MODE, SMALL_ANGLE, IDLE, 1, 1
784, 10558845,   0,   0,   2,   0,   0,   0,   0,   0,   0,   0,   0,   2, 1000,   0,   0,   0, -126, -26, 2067,   0,   0,   0,   0, 1056, 1050, 1050, 1055, ANGLE_MODE, SMALL_ANGLE, IDLE, 1, 1
788, 10560931,   0,   0,   2,   0,   0,   0,   0,   0,   0,   0,   0,   2, 1000,   0,   0,   0, -125, -25, 2066,   0,   0,   0,   0, 1055, 1052, 1050, 1055, ANGLE_MODE, SMALL_ANGLE, IDLE, 1, 1
792, 10563050,   0,   0,   2,   0,   0,   0,   0,   0,   0,   0,   0,   2, 1000,   0,   0,   0, -126, -25, 2066,   0,   0,   0,   0, 1055, 1052, 1050, 1056, ANGLE_MODE, SMALL_ANGLE, IDLE, 1, 1
796, 10565146,   0,   0,   2,   0,   0,   0,   0,   0,   0,   0,   0,   2, 1000,   0,   0,   0, -126, -25, 2066,   0,   0,   0,   0, 1055, 1050, 1051, 1056, ANGLE_MODE, SMALL_ANGLE, IDLE, 1, 1
800, 10567223,   0,   0,   2,   0,   0,   0,   1,   0,   0,   0,   0,   2, 1000,   0,   0,   0, -126, -25, 2065,   0,   0,   0,   0, 1056, 1050, 1053, 1058, ANGLE_MODE, SMALL_ANGLE, IDLE, 1, 1
804, 10569326,   0,   0,   3,   0,   0,   0,   0,   0,   0,   0,   0,   2, 1000,   0,   0,   0, -125, -24, 2065,   0,   0,   0,   0, 1056, 1050, 1051, 1057, ANGLE_MODE, SMALL_ANGLE, IDLE, 1, 1
808, 10571448,   0,   0,   3,   0,   0,   0,   0,   0,   0,   0,   0,   2, 1000,   0,   0,   0, -125, -24, 2066,   0,   0,   0,   0, 1058, 1050, 1051, 1056, ANGLE_MODE, SMALL_ANGLE, IDLE, 1, 1
812, 10573537,   0,   0,   3,   0,   0,   0,   0,   0,   0,   0,   0,   2, 1000,   0,   0,   0, -125, -23, 2065,   0,   0,   0,   0, 1056, 1050, 1050, 1056, ANGLE_MODE, SMALL_ANGLE, IDLE, 1, 1
816, 10575628,   0,   0,   2,   0,   0,   0,   0,   0,   0,   0,   0,   2, 1000,   0,   0,   0, -125, -23, 2065,   0,   0,   0,   0, 1056, 1051, 1050, 1056, ANGLE_MODE, SMALL_ANGLE, IDLE, 1, 1
820, 10577738,   0,   0,   2,   0,   0,   0,   0,   0,   0,   0,   0,   2, 1000,   0,   0,   0, -125, -23, 2065,   0,   0,   0,   0, 1055, 1051, 1050, 1055, ANGLE_MODE, SMALL_ANGLE, IDLE, 1, 1
824, 10579874,   0,   0,   2,   0,   0,   0,   0,   0,   0,   0,   0,   2, 1000,   0,   0,   0, -125, -24, 2064,   0,   0,   0,   0, 1054, 1051, 1050, 1056, ANGLE_MODE, SMALL_ANGLE, IDLE, 1, 1
828, 10581954,   0,   0,   2,   0,   0,   0,   0,   0,   0,   0,   0,   2, 1000,   0,   0,   0, -125, -23, 2064,   0,   0,   0,   0, 1055, 1050, 1051, 1057, ANGLE_MODE, SMALL_ANGLE, IDLE, 1, 1
832, 10584067,   0,   0,   2,   0,   0,   0,   0,   0,   0,   0,   0,   2, 1000,   0,   0,   0, -124, -23, 2064,   0,   0,   0,   0, 1056, 1050, 1051, 1056, ANGLE_MODE, SMALL_ANGLE, IDLE, 1, 1
836, 10586186,   0,   0,   3,   0,   0,   0,   0,   0,   0,   0,   0,   2, 1000,   0,   0,   0, -124, -22, 2064,   0,   0,   0,   0, 1056, 1050, 1050, 1056, ANGLE_MODE, SMALL_ANGLE, IDLE, 1, 1
840, 10588286,   0,   0,   3,   0,   0,   0,   0,   0,   0,   0,   0,   2, 1000,   0,   0,   0, -124, -22, 2064,   0,   0,   0,   0, 1056, 1051, 1050, 1057, ANGLE_MODE, SMALL_ANGLE, IDLE, 1, 1
844, 10590359,   0,   0,   2,   0,   0,   0,   0,   0,   0,   0,   0,   2, 1000,   0,   0,   0, -124, -22, 2064,   0,   0,   0,   0, 1055, 1050, 1051, 1056, ANGLE_MODE, SMALL_ANGLE, IDLE, 1, 1
848, 10592456,   0,   0,   2,   0,   0,   0,   0,   0,   0,   0,   0,   2, 1000,   0,   0,   0, -124, -22, 2065,   0,   0,   0,   0, 1056, 1050, 1052, 1056, ANGLE_MODE, SMALL_ANGLE, IDLE, 1, 1
852, 10594658,   0,   0,   2,   0,   0,   0,   0,   0,   0,   0,   0,   2, 1000,   0,   0,   0, -125, -23, 2066,   0,   0,   0,   0, 1055, 1050, 1051, 1057, ANGLE_MODE, SMALL_ANGLE, IDLE, 1, 1
856, 10596738,   0,   0,   2,   0,   0,   0,   0,   0,   0,   0,   0,   2, 1000,   0,   0,   0, -125, -23, 2066,   0,   0,   0,   0, 1055, 1052, 1051, 1058, ANGLE_MODE, SMALL_ANGLE, IDLE, 1, 1
860, 10598815,   0,   0,   2,   0,   0,   0,   0,   0,   0,   0,   0,   2, 1000,   0,   0,   0, -125, -23, 2067,   0,   0,   0,   0, 1055, 1051, 1051, 1057, ANGLE_MODE, SMALL_ANGLE, IDLE, 1, 1
864, 10600924,   0,   0,   2,   0,   0,   0,   0,   0,   0,   0,   0,   2, 1000,   0,   0,   0, -125, -22, 2067,   0,   0,   0,   0, 1055, 1050, 1051, 1056, ANGLE_MODE, SMALL_ANGLE, IDLE, 1, 1
868, 10603046,   0,   0,   2,   0,   0,   0,   0,   0,   0,   0,   0,   2, 1000,   0,   0,   0, -125, -22, 2067,   0,   0,   0,   0, 1055, 1050, 1050, 1055, ANGLE_MODE, SMALL_ANGLE, IDLE, 1, 1
872, 10605130,   0,   0,   2,   0,   0,   0,   0,   0,   0,   0,   0,   2, 1000,   0,   0,   0, -125, -21, 2068,   0,   0,   0,   0, 1056, 1051, 1050, 1055, ANGLE_MODE, SMALL_ANGLE, IDLE, 1, 1
876, 10607216,   0,   0,   2,   0,   0,   0,   0,   0,   0,   0,   0,   2, 1000,   0,   0,   0, -125, -21, 2068,   0,   0,   0,   0, 1056, 1050, 1050, 1055, ANGLE_MODE, SMALL_ANGLE, IDLE, 1, 1
880, 10609319,   0,   0,   2,   0,   0,   0,   0,   0,   0,   0,   0,   2, 1000,   0,   0,   0, -125, -21, 2068,   0,   0,   0,   0, 1057, 1050, 1051, 1056, ANGLE_MODE, SMALL_ANGLE, IDLE, 1, 1
884, 10611402,   0,   0,   3,   0,   0,   0,   0,   0,   0,   0,   0,   2, 1000,   0,   0,   0, -125, -21, 2068,   0,   0,   0,   0, 1057, 1050, 1051, 1056, ANGLE_MODE, SMALL_ANGLE, IDLE, 1, 1
888, 10613478,   0,   0,   3,   0,   0,   0,   0,   0,   0,   0,   0,   2, 1000,   0,   0,   0, -125, -21, 2069,   0,   0,   0,   0, 1056, 1050, 1050, 1057, ANGLE_MODE, SMALL_ANGLE, IDLE, 1, 1
892, 10615581,   0,   0,   3,   0,   0,   0,   0,   0,   0,   0,   0,   2, 1000,   0,   0,   0, -125, -21, 2068,   0,   0,   0,   0, 1056, 1050, 1051, 1057, ANGLE_MODE, SMALL_ANGLE, IDLE, 1, 1
896, 10617714,   0,   0,   2,   0,   0,   0,   0,   0,   0,   0,   0,   2, 1000,   0,   0,   0, -125, -21, 2068,   0,   0,   0,   0, 1058, 1050, 1051, 1055, ANGLE_MODE, SMALL_ANGLE, IDLE, 1, 1
900, 10619819,   0,   0,   2,   0,   0,   0,   0,   0,   0,   0,   0,   2, 1000,   0,   0,   0, -126, -21, 2069,   0,   0,   0,   0, 1058, 1051, 1051, 1054, ANGLE_MODE, SMALL_ANGLE, IDLE, 1, 1
904, 10621900,   0,   0,   2,   0,   0,   0,   0,   0,   0,   0,   0,   2, 1000,   0,   0,   0, -126, -21, 2069,   0,   0,   0,   0, 1057, 1051, 1051, 1054, ANGLE_MODE, SMALL_ANGLE, IDLE, 1, 1
908, 10624008,   0,   0,   2,   0,   0,   0,   0,   0,   0,   0,   0,   2, 1000,   0,   0,   0, -126, -22, 2069,   0,   0,   0,   0, 1057, 1050, 1051, 1055, ANGLE_MODE, SMALL_ANGLE, IDLE, 1, 1
912, 10626141,   0,   0,   2,   0,   0,   0,   0,   0,   0,   0,   0,   2, 1000,   0,   0,   0, -126, -22, 2069,   0,   0,   0,   0, 1057, 1050, 1053, 1055, ANGLE_MODE, SMALL_ANGLE, IDLE, 1, 1
916, 10628221,   0,   0,   2,   0,   0,   0,   0,   0,   0,   0,   0,   2, 1000,   0,   0,   0, -126, -22, 2069,   0,   0,   0,   0, 1057, 1050, 1052, 1056, ANGLE_MODE, SMALL_ANGLE, IDLE, 1, 1
920, 10630298,   0,   0,   2,   0,   0,   0,   0,   0,   0,   0,   0,   2, 1000,   0,   0,   0, -126, -23, 2068,   0,   0,   0,   0, 1056, 1052, 1050, 1056, ANGLE_MODE, SMALL_ANGLE, IDLE, 1, 1
924, 10632402,   0,   0,   2,   0,   0,   0,   0,   0,   0,   0,   0,   2, 1000,   0,   0,   0, -126, -23, 2068,   0,   0,   0,   0, 1057, 1052, 1050, 1055, ANGLE_MODE, SMALL_ANGLE, IDLE, 1, 1
928, 10634508,   0,   0,   2,   0,   0,   0,   0,   0,   0,   0,   0,   2, 1000,   0,   0,   0, -125, -23, 2068,   0,   0,   0,   0, 1056, 1051, 1051, 1054, ANGLE_MODE, SMALL_ANGLE, IDLE, 1, 1
932, 10636608,   0,   0,   2,   0,   0,   0,   0,   0,   0,   0,   0,   2, 1000,   0,   0,   0, -125, -24, 2067,   0,   0,   0,   0, 1056, 1050, 1051, 1054, ANGLE_MODE, SMALL_ANGLE, IDLE, 1, 1
936, 10638712,   0,   0,   2,   0,   0,   0,   0,   0,   0,   0,   0,   2, 1000,   0,   0,   0, -125, -24, 2067,   0,   0,   0,   0, 1055, 1050, 1051, 1054, ANGLE_MODE, SMALL_ANGLE, IDLE, 1, 1
940, 10640834,   0,   0,   2,   0,   0,   0,   0,   0,   0,   0,   0,   2, 1000,   0,   0,   0, -125, -25, 2066,   0,   0,   0,   0, 1055, 1050, 1051, 1055, ANGLE_MODE, SMALL_ANGLE, IDLE, 1, 1
944, 10642960,   0,   0,   2,   0,   0,   0,   0,   0,   0,   0,   0,   2, 1000,   0,   0,   0, -124, -25, 2066,   0,   0,   0,   0, 1055, 1050, 1051, 1055, ANGLE_MODE, SMALL_ANGLE, IDLE, 1, 1
948, 10645034,   0,   0,   2,   0,   0,   0,   0,   0,   0,   0,   0,   2, 1000,   0,   0,   0, -124, -25, 2066,   0,   0,   0,   0, 1056, 1051, 1050, 1055, ANGLE_MODE, SMALL_ANGLE, IDLE, 1, 1
952, 10647132,   0,   0,   3,   0,   0,   0,   0,   0,   0,   0,   0,   2, 1000,   0,   0,   0, -123, -24, 2066,   0,   0,   0,   0, 1056, 1050, 1050, 1056, ANGLE_MODE, SMALL_ANGLE, IDLE, 1, 1
956, 10649269,   0,   0,   3,   0,   0,   0,   0,   0,   0,   0,   0,   2, 1000,   0,   0,   0, -123, -24, 2066,   0,   0,   0,   0, 1056, 1050, 1051, 1056, ANGLE_MODE, SMALL_ANGLE, IDLE, 1, 1
960, 10651360,   0,   0,   2,   0,   0,   0,   0,   0,   0,   0,   0,   2, 1000,   0,   0,   0, -122, -24, 2066,   0,   0,   0,   0, 1056, 1050, 1051, 1057, ANGLE_MODE, SMALL_ANGLE, IDLE, 1, 1
964, 10653439,   0,   0,   2,   0,   0,   0,   0,   0,   0,   0,   0,   2, 1000,   0,   0,   0, -122, -24, 2066,   0,   0,   0,   0, 1055, 1051, 1050, 1057, ANGLE_MODE, SMALL_ANGLE, IDLE, 1, 1
968, 10655523,   0,   0,   2,   0,   0,   0,   0,   0,   0,   0,   0,   2, 1000,   0,   0,   0, -122, -24, 2067,   0,   0,   0,   0, 1055, 1050, 1051, 1057, ANGLE_MODE, SMALL_ANGLE, IDLE, 1, 1
972, 10657632,   0,   0,   2,   0,   0,   0,   0,   0,   0,   0,   0,   2, 1000,   0,   0,   0, -122, -24, 2067,   0,   0,   0,   0, 1055, 1050, 1051, 1057, ANGLE_MODE, SMALL_ANGLE, IDLE, 1, 1
976, 10659718,   0,   0,   2,   0,   0,   0,   0,   0,   0,   0,   0,   2, 1000,   0,   0,   0, -121, -24, 2066,   0,   0,   0,   0, 1055, 1050, 1050, 1056, ANGLE_MODE, SMALL_ANGLE, IDLE, 1, 1
980, 10661806,   0,   0,   2,   0,   0,   0,   0,   0,   0,   0,   0,   2, 1000,   0,   0,   0, -121, -24, 2067,   0,   0,   0,   0, 1057, 1051, 1050, 1056, ANGLE_MODE, SMALL_ANGLE, IDLE, 1, 1
984, 10663975,   0,   0,   2,   0,   0,   0,   0,   0,   0,   0,   0,   2, 1000,   0,   0,   0, -121, -24, 2067,   0,   0,   0,   0, 1057, 1051, 1050, 1055, ANGLE_MODE, SMALL_ANGLE, IDLE, 1, 1
988, 10666064,   0,   0,   2,   0,   0,   0,   0,   0,   0,   0,   0,   2, 1000,   0,   0,   0, -121, -23, 2067,   0,   0,   0,   0, 1056, 1051, 1050, 1054, ANGLE_MODE, SMALL_ANGLE, IDLE, 1, 1
992, 10668135,   0,   0,   2,   0,   0,   0,   0,   0,   0,   0,   0,   2, 1000,   0,   0,   0, -121, -23, 2067,   0,   0,   0,   0, 1056, 1051, 1050, 1054, ANGLE_MODE, SMALL_ANGLE, IDLE, 1, 1
996, 10670269,   0,   0,   2,   0,   0,   0,   0,   0,   0,   0,   0,   2, 1000,   0,   0,   0, -121, -23, 2067,   0,   0,   0,   0, 1055, 1050, 1051, 1055, ANGLE_MODE, SMALL_ANGLE, IDLE, 1, 1
1000, 10672396,   0,   0,   2,   0,   0,   0,   0,   0,   0,   0,   0,   2, 1000,   0,   0,   0, -121, -23, 2067,   0,   0,   0,   0, 1054, 1050, 1053, 1056, ANGLE_MODE, SMALL_ANGLE, IDLE, 1, 1
1004, 10674489,   0,   0,   2,   0,   0,   0,   0,   0,   0,   0,   0,   2, 1000,   0,   0,   0, -121, -23, 2066,   0,   0,   0,   0, 1054, 1051, 1052, 1057, ANGLE_MODE, SMALL_ANGLE, IDLE, 1, 1
1008, 10676572,   0,   0,   2,   0,   0,   0,   0,   0,   0,   0,   0,   2, 1000,   0,   0,   0, -121, -23, 2066,   0,   0,   0,   0, 1055, 1052, 1050, 1058, ANGLE_MODE, SMALL_ANGLE, IDLE, 1, 1
1012, 10678669,   0,   0,   2,   0,   0,   0,   0,   0,   0,   0,   0,   2, 1000,   0,   0,   0, -121, -23, 2065,   0,   0,   0,   0, 1056, 1052, 1050, 1057, ANGLE_MODE, SMALL_ANGLE, IDLE, 1, 1
1016, 10680767,   0,   0,   2,   0,   0,   0,   0,   0,   0,   0,   0,   2, 1000,   0,   0,   0, -122, -23, 2065,   0,   0,   0,   0, 1056, 1050, 1051, 1055, ANGLE_MODE, SMALL_ANGLE, IDLE, 1, 1
1020, 10682852,   0,   0,   2,   0,   0,   0,   0,   0,   0,   0,   0,   2, 1000,   0,   0,   0, -122, -23, 2065,   0,   0,   0,   0, 1056, 1050, 1052, 1055, ANGLE_MODE, SMALL_ANGLE, IDLE, 1, 1
1024, 10684946,   0,   0,   2,   0,   0,   0,   0,   0,   0,   0,   0,   2, 1000,   0,   0,   0, -122, -23, 2065,   0,   0,   0,   0, 1054, 1050, 1050, 1054, ANGLE_MODE, SMALL_ANGLE, IDLE, 1, 1
1028, 10687101,   0,   0,   2,   0,   0,   0,   0,   0,   0,   0,   0,   2, 1000,   0,   0,   0, -123, -23, 2064,   0,   0,   0,   0, 1054, 1052, 1050, 1056, ANGLE_MODE, SMALL_ANGLE, IDLE, 1, 1
1032, 10689184,   0,   0,   2,   0,   0,   0,   0,   0,   0,   0,   0,   2, 1000,   0,   0,   0, -123, -23, 2064,   0,   0,   0,   0, 1055, 1051, 1050, 1056, ANGLE_MODE, SMALL_ANGLE, IDLE, 1, 1
1036, 10691256,   0,   0,   3,   0,   0,   0,   0,   0,   0,   0,   0,   2, 1000,   0,   0,   0, -124, -22, 2063,   0,   0,   0,   0, 1056, 1050, 1050, 1056, ANGLE_MODE, SMALL_ANGLE, IDLE, 1, 1
1040, 10693388,   0,   0,   3,   0,   0,   0,   0,   0,   0,   0,   0,   2, 1000,   0,   0,   0, -125, -22, 2063,   0,   0,   0,   0, 1057, 1050, 1050, 1057, ANGLE_MODE, SMALL_ANGLE, IDLE, 1, 1
1044, 10695526,   0,   0,   3,   0,   0,   0,   0,   0,   0,   0,   0,   2, 1000,   0,   0,  -1, -125, -21, 2063,   0,   0,   0,   0, 1059, 1050, 1052, 1057, ANGLE_MODE, SMALL_ANGLE, IDLE, 1, 1
1048, 10697606,   0,   0,   3,   0,   0,   0,   0,   0,   0,   0,   0,   2, 1000,   0,   0,   0, -126, -21, 2063,   0,   0,   0,   0, 1058, 1050, 1052, 1057, ANGLE_MODE, SMALL_ANGLE, IDLE, 1, 1
1052, 10699683,   0,   0,   2,   0,   0,   0,   0,   0,   0,   0,   0,   2, 1000,   0,   0,   0, -126, -21, 2062,   0,   0,   0,   0, 1056, 1050, 1050, 1056, ANGLE_MODE, SMALL_ANGLE, IDLE, 1, 1
1056, 10701784,   0,   0,   2,   0,   0,   0,   0,   0,   0,   0,   0,   2, 1000,   0,   0,   0, -127, -21, 2062,   0,   0,   0,   0, 1055, 1052, 1050, 1056, ANGLE_MODE, SMALL_ANGLE, IDLE, 1, 1
1060, 10703928,   0,   0,   2,   0,   0,   0,   0,   0,   0,   0,   0,   2, 1000,   0,   0,   0, -127, -21, 2062,   0,   0,   0,   0, 1056, 1052, 1050, 1055, ANGLE_MODE, SMALL_ANGLE, IDLE, 1, 1
1064, 10706008,   0,   0,   2,   0,   0,   0,   0,   0,   0,   0,   0,   2, 1000,   0,   0,   0, -127, -22, 2061,   0,   0,   0,   0, 1056, 1050, 1050, 1055, ANGLE_MODE, SMALL_ANGLE, IDLE, 1, 1
1068, 10708106,   0,   0,   2,   0,   0,   0,   0,   0,   0,   0,   0,   2, 1000,   0,   0,   0, -127, -22, 2061,   0,   0,   0,   0, 1056, 1050, 1050, 1055, ANGLE_MODE, SMALL_ANGLE, IDLE, 1, 1
1072, 10710233,   0,   0,   2,   0,   0,   0,   0,   0,   0,   0,   0,   2, 1000,   0,   0,   0, -127, -23, 2060,   0,   0,   0,   0, 1057, 1051, 1050, 1056, ANGLE_MODE, SMALL_ANGLE, IDLE, 1, 1
1076, 10712306,   0,   0,   2,   0,   0,   0,   0,   0,   0,   0,   0,   2, 1000,   0,   0,   0, -126, -23, 2060,   0,   0,   0,   0, 1057, 1051, 1051, 1055, ANGLE_MODE, SMALL_ANGLE, IDLE, 1, 1
1080, 10714368,   0,   0,   2,   0,   0,   0,   0,   0,   0,   0,   0,   2, 1000,   0,   0,   0, -126, -23, 2060,   0,   0,   0,   0, 1056, 1050, 1052, 1055, ANGLE_MODE, SMALL_ANGLE, IDLE, 1, 1
1084, 10716479,   0,   0,   2,   0,   0,   0,   0,   0,   0,   0,   0,   2, 1000,   0,   0,   0, -126, -24, 2059,   0,   0,   0,   0, 1055, 1050, 1051, 1055, ANGLE_MODE, SMALL_ANGLE, IDLE, 1, 1
1088, 10718580,   0,   0,   2,   0,   0,   0,   0,   0,   0,   0,   0,   2, 1000,   0,   0,   0, -126, -24, 2059,   0,   0,   0,   0, 1056, 1051, 1050, 1054, ANGLE_MODE, SMALL_ANGLE, IDLE, 1, 1
1092, 10720684,   0,   0,   2,   0,   0,   0,   0,   0,   0,   0,   0,   2, 1000,   0,   0,   0, -126, -25, 2060,   0,   0,   0,   0, 1057, 1051, 1050, 1054, ANGLE_MODE, SMALL_ANGLE, IDLE, 1, 1
1096, 10722780,   0,   0,   2,   0,   0,   0,   0,   0,   0,   0,   0,   2, 1000,   0,   0,   0, -126, -26, 2060,   0,   0,   0,   0, 1057, 1051, 1050, 1055, ANGLE_MODE, SMALL_ANGLE, IDLE, 1, 1
1100, 10724924,   0,   0,   2,   0,   0,   0,   0,   0,   0,   0,   0,   2, 1000,   0,   0,   0, -126, -27, 2061,   0,   0,   0,   0, 1056, 1052, 1050, 1056, ANGLE_MODE, SMALL_ANGLE, IDLE, 1, 1
1104, 10727021,   0,   0,   2,   0,   0,   0,   0,   0,   0,   0,   0,   2, 1000,   0,   0,   0, -126, -27, 2061,   0,   0,   0,   0, 1056, 1051, 1050, 1056, ANGLE_MODE, SMALL_ANGLE, IDLE, 1, 1
1108, 10729102,   0,   0,   2,   0,   0,   0,   0,   0,   0,   0,   0,   2, 1000,   0,   0,   0, -126, -27, 2062,   0,   0,   0,   0, 1057, 1050, 1051, 1055, ANGLE_MODE, SMALL_ANGLE, IDLE, 1, 1
1112, 10731196,   0,   0,   2,   0,   0,   0,   0,   0,   0,   0,   0,   2, 1000,   0,   0,   0, -126, -27, 2062,   0,   0,   0,   0, 1057, 1050, 1051, 1055, ANGLE_MODE, SMALL_ANGLE, IDLE, 1, 1
1116, 10733333,   0,   0,   2,   0,   0,   0,   0,   0,   0,   0,   0,   2, 1000,   0,   0,   0, -125, -28, 2062,   0,   0,   0,   0, 1057, 1050, 1051, 1055, ANGLE_MODE, SMALL_ANGLE, IDLE, 1, 1
1120, 10735399,   0,   0,   2,   0,   0,   0,   0,   0,   0,   0,   0,   2, 1000,   0,   0,   0, -125, -28, 2062,   0,   0,   0,   0, 1056, 1050, 1051, 1055, ANGLE_MODE, SMALL_ANGLE, IDLE, 1, 1
1124, 10737508,   0,   0,   2,   0,   0,   0,   0,   0,   0,   0,   0,   2, 1000,   0,   0,   0, -125, -29, 2062,   0,   0,   0,   0, 1056, 1050, 1051, 1057, ANGLE_MODE, SMALL_ANGLE, IDLE, 1, 1
1128, 10739625,   0,   0,   3,   0,   0,   0,   0,   0,   0,   0,   0,   2, 1000,   0,   0,   0, -126, -28, 2063,   0,   0,   0,   0, 1056, 1050, 1051, 1057, ANGLE_MODE, SMALL_ANGLE, IDLE, 1, 1
1132, 10741792,   0,   0,   3,   0,   0,   0,   0,   0,   0,   0,   0,   2, 1000,   0,   0,   0, -126, -28, 2063,   0,   0,   0,   0, 1056, 1050, 1050, 1057, ANGLE_MODE, SMALL_ANGLE, IDLE, 1, 1
1136, 10743881,   0,   0,   3,   0,   0,   0,   0,   0,   0,   0,   0,   2, 1000,   0,   0,   0, -126, -28, 2063,   0,   0,   0,   0, 1056, 1050, 1051, 1057, ANGLE_MODE, SMALL_ANGLE, IDLE, 1, 1
1140, 10745967,   0,   0,   2,   0,   0,   0,   0,   0,   0,   0,   0,   2, 1000,   0,   0,   0, -125, -28, 2063,   0,   0,   0,   0, 1056, 1050, 1051, 1055, ANGLE_MODE, SMALL_ANGLE, IDLE, 1, 1
1144, 10748070,   0,   0,   2,   0,   0,   0,   0,   0,   0,   0,   0,   2, 1000,   0,   0,   0, -125, -27, 2063,   0,   0,   0,   0, 1056, 1051, 1050, 1055, ANGLE_MODE, SMALL_ANGLE, IDLE, 1, 1
1148, 10750175,   0,   0,   2,   0,   0,   0,   0,   0,   0,   0,   0,   2, 1000,   0,   0,   0, -125, -27, 2063,   0,   0,   0,   0, 1055, 1051, 1050, 1055, ANGLE_MODE, SMALL_ANGLE, IDLE, 1, 1
1152, 10752260,   0,   0,   2,   0,   0,   0,   0,   0,   0,   0,   0,   2, 1000,   0,   0,   0, -124, -27, 2063,   0,   0,   0,   0, 1055, 1051, 1050, 1056, ANGLE_MODE, SMALL_ANGLE, IDLE, 1, 1
1156, 10754382,   0,   0,   2,   0,   0,   0,   0,   0,   0,   0,   0,   2, 1000,   0,   0,   0, -124, -27, 2063,   0,   0,   0,   0, 1054, 1050, 1050, 1056, ANGLE_MODE, SMALL_ANGLE, IDLE, 1, 1
1160, 10756516,   0,   0,   2,   0,   0,   0,   0,   0,   0,   0,   0,   2, 1000,   0,   0,   0, -124, -27, 2063,   0,   0,   0,   0, 1054, 1050, 1051, 1057, ANGLE_MODE, SMALL_ANGLE, IDLE, 1, 1
1164, 10758591,   0,   0,   2,   0,   0,   0,   0,   0,   0,   0,   0,   2, 1000,   0,   0,   0, -124, -27, 2063,   0,   0,   0,   0, 1054, 1050, 1051, 1057, ANGLE_MODE, SMALL_ANGLE, IDLE, 1, 1
1168, 10760665,   0,   0,   2,   0,   0,   0,   0,   0,   0,   0,   0,   2, 1000,   0,   0,   0, -124, -27, 2063,   0,   0,   0,   0, 1055, 1050, 1051, 1055, ANGLE_MODE, SMALL_ANGLE, IDLE, 1, 1
1172, 10762766,   0,   0,   2,   0,   0,   0,   0,   0,   0,   0,   0,   2, 1000,   0,   0,   0, -124, -27, 2063,   0,   0,   0,   0, 1055, 1050, 1051, 1055, ANGLE_MODE, SMALL_ANGLE, IDLE, 1, 1
1176, 10764929,   0,   0,   2,   0,   0,   0,   0,   0,   0,   0,   0,   2, 1000,   0,   0,   0, -123, -27, 2063,   0,   0,   0,   0, 1055, 1050, 1051, 1055, ANGLE_MODE, SMALL_ANGLE, IDLE, 1, 1
1180, 10767016,   0,   0,   2,   0,   0,   0,   0,   0,   0,   0,   0,   2, 1000,   0,   0,   0, -123, -27, 2062,   0,   0,   0,   0, 1054, 1050, 1051, 1055, ANGLE_MODE, SMALL_ANGLE, IDLE, 1, 1
1184, 10769114,   0,   0,   2,   0,   0,   0,   0,   0,   0,   0,   0,   2, 1000,   0,   0,   0, -123, -27, 2062,   0,   0,   0,   0, 1054, 1050, 1051, 1055, ANGLE_MODE, SMALL_ANGLE, IDLE, 1, 1
1188, 10771231,   0,   0,   2,   0,   0,   0,   0,   0,   0,   0,   0,   2, 1000,   0,   0,   0, -124, -27, 2062,   0,   0,   0,   0, 1054, 1050, 1050, 1055, ANGLE_MODE, SMALL_ANGLE, IDLE, 1, 1
1192, 10773339,   0,   0,   2,   0,   0,   0,   0,   0,   0,   0,   0,   2, 1000,   0,   0,   0, -124, -26, 2062,   0,   0,   0,   0, 1056, 1051, 1050, 1055, ANGLE_MODE, SMALL_ANGLE, IDLE, 1, 1
1196, 10775422,   0,   0,   2,   0,   0,   0,   0,   0,   0,   0,   0,   2, 1000,   0,   0,   0, -124, -26, 2062,   0,   0,   0,   0, 1057, 1051, 1050, 1056, ANGLE_MODE, SMALL_ANGLE, IDLE, 1, 1
1200, 10777514,   0,   0,   2,   0,   0,   0,   0,   0,   0,   0,   0,   2, 1000,   0,   0,   0, -124, -26, 2062,   0,   0,   0,   0, 1058, 1050, 1051, 1055, ANGLE_MODE, SMALL_ANGLE, IDLE, 1, 1
1204, 10779634,   0,   0,   2,   0,   0,   0,   0,   0,   0,   0,   0,   2, 1000,   0,   0,   0, -124, -25, 2062,   0,   0,   0,   0, 1056, 1050, 1052, 1056, ANGLE_MODE, SMALL_ANGLE, IDLE, 1, 1
1208, 10781712,   0,   0,   2,   0,   0,   0,   0,   0,   0,   0,   0,   2, 1000,   0,   0,   0, -124, -25, 2062,   0,   0,   0,   0, 1055, 1050, 1052, 1057, ANGLE_MODE, SMALL_ANGLE, IDLE, 1, 1
1212, 10783790,   0,   0,   2,   0,   0,   0,   0,   0,   0,   0,   0,   2, 1000,   0,   0,   0, -124, -25, 2062,   0,   0,   0,   0, 1055, 1050, 1051, 1057, ANGLE_MODE, SMALL_ANGLE, IDLE, 1, 1
1216, 10785896,   0,   0,   2,   0,   0,   0,   0,   0,   0,   0,   0,   2, 1000,   0,   0,   0, -125, -24, 2063,   0,   0,   0,   0, 1056, 1051, 1050, 1057, ANGLE_MODE, SMALL_ANGLE, IDLE, 1, 1
1220, 10788055,   0,   0,   2,   0,   0,   0,   0,   0,   0,   0,   0,   2, 1000,   0,   0,   0, -125, -24, 2063,   0,   0,   0,   0, 1056, 1051, 1050, 1056, ANGLE_MODE, SMALL_ANGLE, IDLE, 1, 1
1224, 10790142,   0,   0,   2,   0,   0,   0,   0,   0,   0,   0,   0,   2, 1000,   0,   0,   0, -125, -25, 2063,   0,   0,   0,   0, 1057, 1050, 1051, 1056, ANGLE_MODE, SMALL_ANGLE, IDLE, 1, 1
1228, 10792221,   0,   0,   2,   0,   0,   0,   0,   0,   0,   0,   0,   2, 1000,   0,   0,   0, -125, -25, 2063,   0,   0,   0,   0, 1057, 1050, 1052, 1056, ANGLE_MODE, SMALL_ANGLE, IDLE, 1, 1
